"설치장소명",설치장소상세,설치시도명,설치시군구명,설치시설구분,서비스제공사명,와이파이SSID,설치년월,소재지도로명주소,소재지지번주소,관리기관명,관리기관전화번호,위도,경도,데이터기준일자
"서문시장 제4지구",상가통로,대구광역시,중구,기타,LG U+,Public WiFi Free,2020-12,대구광역시 중구 큰장로28길 28,대구광역시 중구 대신동115-377,대구광역시 중구청,053-661-2474,35.8694647,128.5807674,2020-06-30
"서문시장 제5지구",상가통로,대구광역시,중구,기타,SKT,Public WiFi Free,2020-12,대구광역시 중구 큰장로26길6,대구광역시 중구 대신동 115-400,대구광역시 중구청,053-661-2474,35.8680879,128.5784309,2020-06-30
"남문시장",상가통로 및  옥상,대구광역시,중구,기타,SKT,Public WiFi Free,2020-12,대구광역시 중구 명륜로 70,대구광역시 중구 남산1동 698-22,대구광역시 중구청,053-661-2474,35.8610709,128.5919889,2020-06-30
"교동시장",상가통로 및  옥상,대구광역시,중구,기타,LG U+,Public WiFi Free,2020-12,대구광역시 중구 교동길 40,대구광역시 중구 교동 67-12,대구광역시 중구청,053-661-2474,35.8732546,128.5967893,2020-06-30
"서문시장 명품프라자 상가",상가 통로,대구광역시,중구,기타,KT,Public WiFi Free,2020-12,대구광역시 중구 큰장로28길 27,대구광역시 중구 대신동 115-112,대구광역시 중구청,053-661-2474,35.8699364,128.5808982,2020-06-30
"중구보건소","로비, 민원실",대구광역시,중구,관공서,KT,Public WiFi Free,2020-12,대구광역시 중구 태평로 45,대구광역시 중구 태평로3가 174-1,대구광역시 중구청,053-661-2474,35.8778703,128.583387,2020-06-30
"남산기독교종합사회복지관",사무실 및 강당,대구광역시,중구,서민·복지시설,LG U+,Public WiFi Free,2020-12,대구광역시 중구 관덕정길16,대구광역시 중구 남산동 941-1,대구광역시 중구청,053-661-2474,35.8650401,128.5905646,2020-06-30
"남산종합사회복지관","대강당, 복도, 공부방 앞",대구광역시,중구,서민·복지시설,LG U+,Public WiFi Free,2020-12,대구광역시 중구 남산로7길 80,대구광역시 중구 남산동 2482-1,대구광역시 중구청,053-661-2474,35.8599331,128.579677,2020-06-30
"가톨릭근로자회관노숙인쉼터",쉼터출입구 천정,대구광역시,중구,서민·복지시설,LG U+,Public WiFi Free,2020-12,대구광역시 중구 중앙대로77길 40,대구광역시 중구 종로2가 35,대구광역시 중구청,053-661-2474,35.8686142,128.5914061,2020-06-30
"중구 청소년문화의 집","출입구, 복도, 대강당",대구광역시,중구,서민·복지시설,LG U+,Public WiFi Free,2020-12,대구광역시 중구 봉산문화길 40,대구광역시 중구 봉산동 223-20,대구광역시 중구청,053-661-2474,35.8619317,128.5979877,2020-06-30
"번개시장",시장통로 및 옥상,대구광역시,중구,기타,LG U+,Public WiFi Free,2020-12,대구광역시 중구 태평로 177-2,대구광역시 중구 태평로1가 1-186,대구광역시 중구청,053-661-2474,35.8752351,128.5974642,2020-06-30
"방천시장","공연장 앞 펜스위, 김광석 거리 입구",대구광역시,중구,기타,LG U+,Public WiFi Free,2020-12,대구광역시 중구 달구벌대로446길 11,대구광역시 중구 대봉동 11-49,대구광역시 중구청,053-661-2474,35.8618339,128.6060079,2020-06-30
3.1운동길,관광해설사의 집 지붕,대구광역시,중구,관광,LG U+,Public WiFi Free,2020-12,대구광역시 중구 달성로 56,대구광역시 중구 동산동 194,대구광역시 중구청,053-661-2474,35.86895629,128.5831757,2020-06-30
"대구광역시 중구청","민원실, 로비",대구광역시,중구,관공서,KT,Public WiFi Free,2020-12,대구광역시 중구 국채보상로139길1,대구광역시 중구 동인동2가 177-4,대구광역시 중구청,053-661-2474,35.8692838,128.6060779,2020-06-30
"삼덕동주민센터",민원실,대구광역시,중구,관공서,KT,Public WiFi Free,2020-12,대구광역시 중구 달구벌대로447길 72-11,대구광역시 중구 삼덕동3가 174-2,대구광역시 중구청,053-661-2474,35.8655468,128.6089583,2020-06-30
"남산2동주민센터",민원실,대구광역시,중구,관공서,KT,Public WiFi Free,2020-12,대구광역시 중구 명륜로 27-1,대구광역시 중구 남산2동 573-1,대구광역시 중구청,053-661-2474,35.864077,128.5895742,2020-06-30
"서문시장","야시장, 2지구, 만남의 장소 등",대구광역시,중구,기타,KT,Public WiFi Free,2020-12,대구광역시 중구 큰장로28길 10,대구광역시 중구 대신동 2105,대구광역시 중구청,053-661-2474,35.8694078,128.5798557,2020-06-30
"염매시장",상가통로,대구광역시,중구,기타,KT,Public WiFi Free,2020-12,대구광역시 중구 종로 8,대구광역시 중구 계산동2가 255-1,대구광역시 중구청,053-661-2474,35.866636,128.5924688,2020-06-30
"중부노인복지센터",복지센터 내,대구광역시,중구,서민·복지시설,KT,Public WiFi Free,2020-12,대구광역시 중구 명륜로 43-10,대구광역시 중구 남산2동 618-24,대구광역시 중구청,053-661-2474,35.8629957,128.5904221,2020-06-30
"봉산문화회관","1층 로비, 2층 통로",대구광역시,중구,관공서,KT,Public WiFi Free,2020-12,대구광역시 중구 봉산문화길 77,대구광역시 중구 봉산동 125,대구광역시 중구청,053-661-2474,35.8631367,128.5965618,2020-06-30
"대구청소년지원재단",재단내,대구광역시,중구,서민·복지시설,KT,Public WiFi Free,2020-12,대구광역시 중구 중앙대로81길 66-5,대구광역시 중구 종로1가 83-1,대구광역시 중구청,053-661-2474,35.869932,128.5901125,2020-06-30
"경상감영공원",공원 주차장 출입계단,대구광역시,중구,기타,LG U+,Public WiFi Free,2020-12,대구광역시 중구 경상감영길 99,대구광역시 중구 포정동 21,대구광역시 중구청,053-661-2474,35.8722155,128.5922224,2020-06-30
"대구중구노인상담소",상담소 내,대구광역시,중구,서민·복지시설,LG U+,Public WiFi Free,2020-12,대구광역시 중구 경상감영1길 43,대구광역시 중구 대안동 10-4,대구광역시 중구청,053-661-2474,35.8729421,128.5927427,2020-06-30
"대봉1동주민센터",주민센터 내 민원실,대구광역시,중구,관공서,LG U+,Public WiFi Free,2020-12,대구광역시 중구 달구벌대로440길 27,대구광역시 중구 대봉1동 19-17,대구광역시 중구청,053-661-2474,35.8616393,128.6043643,2020-06-30
"대봉2동주민센터",주민센터 내 민원실,대구광역시,중구,관공서,LG U+,Public WiFi Free,2020-12,대구광역시 중구 대봉로45길 29,대구광역시 중구 대봉2동 152-7,대구광역시 중구청,053-661-2474,35.8581536,128.5997619,2020-06-30
"대신동주민센터",주민센터 내 민원실,대구광역시,중구,관공서,LG U+,Public WiFi Free,2020-12,대구광역시 중구 달구벌대로389길 50,대구광역시 중구 대신동 1083,대구광역시 중구청,053-661-2474,35.86558207,128.5763499,2020-06-30
"동부시장",시장통로,대구광역시,중구,기타,LG U+,Public WiFi Free,2020-12,대구광역시 중구 동성로3길 87,대구광역시 중구 동인동1가 470-2,대구광역시 중구청,053-661-2474,35.8692709,128.5980362,2020-06-30
"성내1동주민센터",주민센터 내 민원실,대구광역시,중구,관공서,LG U+,Public WiFi Free,2020-12,대구광역시 중구 명륜로26길 77-2,대구광역시 중구 공평동 16-31,대구광역시 중구청,053-661-2474,35.8567598,128.5978315,2020-06-30
"어르신마을노인복지센터",복지센터 내,대구광역시,중구,서민·복지시설,LG U+,Public WiFi Free,2020-12,대구광역시 동구 효동로2길 24,대구광역시 중구 대봉2동 733-4,대구광역시 중구청,053-661-2474,35.8797836,128.6519603,2020-06-30
"중구시니어클럽",사무실 내,대구광역시,중구,서민·복지시설,LG U+,Public WiFi Free,2020-12,대구광역시 동구 효동로2길 24 (효목동),대구광역시 중구 삼덕동2가 149-63,대구광역시 중구청,053-661-2474,35.8797836,128.6519603,2020-06-30
"아양아트센터",전체,대구광역시,동구,지역문화시설,"KT, LGU+",Public WiFi Free,2020-03,대구광역시 동구 동북로 71길 33,대구광역시 동구 효목1동 1084,대구광역시 동구청,053-662-2472,35.8906223,128.6311303,2020-06-30
"신암공원관리사무소",전체,대구광역시,동구,기타,KT,Public WiFi Free,2020-03,대구광역시 동구 금호강변로 278 (율하동),대구광역시 동구 신암4동 125-3,대구광역시 동구청,053-662-2472,35.859963457,128.692827529,2020-06-30
"율하체육공원",전체,대구광역시,동구,기타,KT,Public WiFi Free,2020-03,대구광역시 동구 큰고개로 23 (신암동),대구광역시 동구 율하동 1626,대구광역시 동구청,053-662-2472,35.8862253,128.6241342,2020-06-30
"봉무공원",전체,대구광역시,동구,기타,KT,Public WiFi Free,2020-03,대구광역시 동구 신암북로11길 54(신암동),대구광역시 동구 봉무동 135-2,대구광역시 동구청,053-662-2472,35.8901537,128.6216009,2020-06-30
"해오름재가노인복지센터",전체,대구광역시,동구,서민·복지시설,KT,Public WiFi Free,2020-06,대구광역시 동구 팔공로25길 16 (불로동),대구광역시 동구 신암4동 662,대구광역시 동구청,053-662-2472,35.9103078,128.6393123,2020-06-30
"동부도서관",전체,대구광역시,동구,관공서,KT,Public WiFi Free,2020-06,대구광역시 동구 해동로3길 20 (지저동),대구광역시 동구 신암4동 664-19,대구광역시 동구청,053-662-2472,35.8963389,128.6387115,2020-06-30
"볼로봉무동 주민센터",민원실,대구광역시,동구,관공서,SKT,Public WiFi Free,2020-06,대구광역시 동구 동촌로 79 (검사동),대구광역시 동구 불로동 434,대구광역시 동구청,053-662-2472,35.8880958,128.6512343,2020-06-30
"지저동 주민센터",민원실,대구광역시,동구,관공서,KT,Public WiFi Free,2020-06,대구광역시 동구 안심로49길 98 (서호동),대구광역시 동구 지저동 779-5,대구광역시 동구청,053-662-2472,35.8705213,128.7108358,2020-06-30
"동구 보건소",전체,대구광역시,동구,관공서,KT,Public WiFi Free,2020-06,대구광역시 동구 화랑로41길 46,대구광역시 동구 검사동 1005-8,대구광역시 동구청,053-662-2472,35.8816142,128.6449448,2020-06-30
"안심3·4동 주민센터",민원실,대구광역시,동구,관공서,KT,Public WiFi Free,2020-06,대구광역시 동구 공항로31길 9-6 (불로동),대구광역시 동구 서호동 14,대구광역시 동구청,053-662-2472,35.9019763,128.6300661,2020-06-30
"효목1동 주민센터",민원실,대구광역시,동구,관공서,SKT,Public WiFi Free,2020-11,대구광역시 동구 아양로 207 (신암동),대구광역시 동구 효목1동 174-9,대구광역시 동구청,053-662-2472,35.8867281,128.6356637,2020-06-30
"동구노인복지회관",전체,대구광역시,동구,서민·복지시설,KT,Public WiFi Free,2020-11,대구광역시 동구 해동로 219 (검사동),대구광역시 동구 불로동 948,대구광역시 동구청,053-662-2472,35.8862005,128.6533675,2020-06-30
"팔공노인복지회관",전체,대구광역시,동구,서민·복지시설,KT,Public WiFi Free,2020-11,대구광역시 동구 효목로 14 (효목동),대구광역시 동구 신암5동 36-1,대구광역시 동구청,053-662-2472,35.8744148,128.6396573,2020-06-30
"대구SOS어린이마을",전체,대구광역시,동구,서민·복지시설,KT,Public WiFi Free,2020-11,대구광역시 동구 아양로37길 14 (신암동),대구광역시 동구 검사동 962,대구광역시 동구청,053-662-2472,35.8866371,128.6339606,2020-06-30
"동구시장",전체,대구광역시,동구,기타,LGU+,Public WiFi Free,2020-11,대구광역시 동구 신암남로 67 (신암동),대구광역시 동구 효목2동 537-1,대구광역시 동구청,053-662-2472,35.8795724,128.6231473,2020-06-30
"동서시장",전체,대구광역시,동구,기타,LGU+,Public WiFi Free,2020-11,대구광역시 동구 팔공로26길 9-1 (불로동),대구광역시 동구 신암5동 105-10,대구광역시 동구청,053-662-2472,35.91040163,128.6419419,2020-06-30
"신암3동 주민센터",민원실,대구광역시,동구,관공서,LGU+,Public WiFi Free,2020-11,대구광역시 동구 효신로 34(효목동),대구광역시 동구 신암3동 233,대구광역시 동구청,053-662-2472,35.8750929,128.634501,2020-06-30
"불로전통시장",민원실,대구광역시,동구,기타,KT,Public WiFi Free,2020-11,대구광역시 동구 신암남로 175-1 (신암동),대구광역시 동구 불로동 450-2,대구광역시 동구청,053-662-2472,35.8848904,128.6320783,2020-06-30
"팔공정보문화센터",전체,대구광역시,동구,서민·복지시설,KT,Public WiFi Free,2020-11,대구광역시 동구 아양로37길 92(신암동),대구광역시 동구 효목동 400-1,대구광역시 동구청,053-662-2472,35.8897559,128.6330629,2020-06-30
"영유아플라자",전체,대구광역시,동구,서민·복지시설,KT,Public WiFi Free,2020-01,대구광역시 동구 국채보상로159길 41(신천동),대구광역시 동구 신암동 342-2,대구광역시 동구청,053-662-2472,35.8704136,128.6150273,2020-06-30
"신암5동 주민센터",민원실,대구광역시,동구,관공서,KT,Public WiFi Free,2020-01,대구광역시 동구 아양로7길 27 (신암동),대구광역시 동구 신암동 72-1,대구광역시 동구청,053-662-2472,35.8842862,128.6163506,2020-06-30
"신천1·2동 주민센터",민원실,대구광역시,동구,관공서,KT,Public WiFi Free,2020-01,대구광역시 동구 신성로 56(신암동),대구광역시 동구 신천동 645-1,대구광역시 동구청,053-662-2472,35.8799695,128.6127068,2020-06-30
"신암1동 주민센터",민원실,대구광역시,동구,관공서,LGU+,Public WiFi Free,2020-01,대구광역시 동구 신암남로23길 53(신암동),대구광역시 동구 신암동 722-293,대구광역시 동구청,053-662-2472,35.8850364,128.6293294,2020-06-30
"신암2동 주민센터",민원실,대구광역시,동구,관공서,LGU+,Public WiFi Free,2020-01,대구광역시 동구 해동로3길 19-5(지저동),대구광역시 동구 신암동 480-13,대구광역시 동구청,053-662-2472,35.8962467,128.6384216,2020-06-30
"신암4동 주민센터",민원실,대구광역시,동구,관공서,LGU+,Public WiFi Free,2020-01,대구광역시 동구 동부로5길 10(신천동),대구광역시 동구 신암동 286-2,대구광역시 동구청,053-662-2472,35.87448676,128.6153095,2020-06-30
"공항시장",전체,대구광역시,동구,기타,KT,Public WiFi Free,2020-11,대구광역시 동구 화랑로25길 45(효목동),대구광역시 동구 지저동 694-47,대구광역시 동구청,053-662-2472,35.8781522,128.6412466,2020-06-30
"송라시장",전체,대구광역시,동구,기타,KT,Public WiFi Free,2020-11,대구광역시 동구 동촌로48길 26(방촌동),대구광역시 동구 신천동 537-13,대구광역시 동구청,053-662-2472,35.880027,128.6652611,2020-06-30
"신천3동주민센터",민원실,대구광역시,동구,관공서,KT,Public WiFi Free,2020-11,대구광역시 동구 율하동로 121(신기동),대구광역시 동구 신천동 80-2,대구광역시 동구청,053-662-2472,35.8703905,128.7021131,2020-06-30
"효목2동행정복지센터",민원실,대구광역시,동구,관공서,KT,Public WiFi Free,2020-11,대구광역시 동구 팔공로91길 9(지묘동),대구광역시 동구 효목동 585-1,대구광역시 동구청,053-662-2472,35.9400873,128.6441372,2020-06-30
"동촌동행정복지센터",민원실,대구광역시,동구,관공서,KT,Public WiFi Free,2020-11,대구광역시 동구 방촌로125(방촌동),대구광역시 동구 입석동 893-12,대구광역시 동구청,053-662-2472,35.882667,128.6657517,2020-06-30
"방촌동주민센터",민원실,대구광역시,동구,관공서,KT,Public WiFi Free,2020-11,대구광역시 동구 율하동로 143(신기동),대구광역시 동구 방촌동 1084-124,대구광역시 동구청,053-662-2472,35.8724248,128.7024201,2020-06-30
"안심1동행정복지센터",민원실,대구광역시,동구,관공서,KT,Public WiFi Free,2020-11,대구광역시 동구 동부로30길 61-7(신천동),대구광역시 동구 신기동 546,대구광역시 동구청,053-662-2472,35.8717286,128.629306,2020-06-30
"도평동주민센터",민원실,대구광역시,동구,관공서,KT,Public WiFi Free,2020-11,대구광역시 동구 아양로 10(신암동),대구광역시 동구 도동 978-385,대구광역시 동구청,053-662-2472,35.8811506,128.6152753,2020-06-30
"공산동주민센터",민원실,대구광역시,동구,관공서,KT,Public WiFi Free,2020-11,대구광역시 동구 동대구로 457,대구광역시 동구 지묘동 269-1,대구광역시 동구청,053-662-2472,35.8710897,128.624959,2020-06-30
"방촌현대시장",전체,대구광역시,동구,기타,LGU+,Public WiFi Free,2020-11,대구광역시 동구 동대구로 475,대구광역시 동구 방촌동 902-7,대구광역시 동구청,053-662-2472,35.872829,128.6248342,2020-06-30
"효목시장",전체,대구광역시,동구,기타,LGU+,Public WiFi Free,2020-11,대구광역시 동구 동대구로 495,대구광역시 동구 효목동 139-5,대구광역시 동구청,053-662-2472,35.8746811,128.6248621,2020-06-30
"반야월종합시장",전체,대구광역시,동구,기타,LGU+,Public WiFi Free,2020-11,대구광역시 동구 효동로2길 27,대구광역시 동구 신기동 174-1,대구광역시 동구청,053-662-2472,35.8810648,128.6513905,2020-06-30
"해안동행정복지센터",민원실,대구광역시,동구,관공서,LGU+,Public WiFi Free,2020-11,대구광역시 동구 효동로2길 39,대구광역시 동구 방촌동 822-5,대구광역시 동구청,053-662-2472,35.8802662,128.6525524,2020-06-30
"신천4동주민센터",민원실,대구광역시,동구,관공서,LGU+,Public WiFi Free,2020-11,대구광역시 동구 효동로6길 58,대구광역시 동구 신천동 368-4,대구광역시 동구청,053-662-2472,35.8829231,128.6492549,2020-06-30
"평화시장",전체,대구광역시,동구,기타,SKT,Public WiFi Free,2020-11,대구광역시 동구 동부로30길 15,대구광역시 동구 신암동 164-19 일대,대구광역시 동구청,053-662-2472,35.8755605,128.6290639,2020-06-30
"동대구로",전체,대구광역시,동구,기타,KT,Public WiFi Free,2020-05,대구광역시 동구 동부로30길 53,대구광역시 동구 신천동 91,대구광역시 동구청,053-662-2472,35.8723103,128.6290703,2020-06-30
"동대구로",전체,대구광역시,동구,기타,KT,Public WiFi Free,2020-05,대구광역시 동구 동내로 117,대구광역시 동구 신천동 107-2,대구광역시 동구청,053-662-2472,35.88095084,128.7341237,2020-06-30
"동대구로",전체,대구광역시,동구,기타,KT,Public WiFi Free,2020-05,대구광역시 서구 국채보상로399,대구광역시 동구 신천동 103,대구광역시 동구청,053-662-2472,35.8722298,128.5747977,2020-06-30
"동대구로",전체,대구광역시,동구,기타,KT,Public WiFi Free,2020-05,대구광역시 서구 당산로403,대구광역시 동구 신천동 95,대구광역시 동구청,053-662-2472,35.8722732,128.5455773,2020-06-30
"동대구로",전체,대구광역시,동구,기타,KT,Public WiFi Free,2020-05,대구광역시 서구 옥산로6길9,대구광역시 동구 신천동 89-6,대구광역시 동구청,053-662-2472,35.885748,128.5788694,2020-06-30
"동대구로",전체,대구광역시,동구,기타,KT,Public WiFi Free,2020-05,대구광역시 서구 문화로49길25,대구광역시 동구 신천동 89-1,대구광역시 동구청,053-662-2472,35.878009,128.5589495,2020-06-30
"동대구로",전체,대구광역시,동구,기타,KT,Public WiFi Free,2020-05,대구광역시 서구 서대구로17길16,대구광역시 동구 신천동 74-1,대구광역시 동구청,053-662-2472,35.8653967,128.5539313,2020-06-30
"동촌유원지",전체,대구광역시,동구,기타,자가망,Public WiFi Free,2020-05,대구광역시 서구 서대구로9,대구광역시 동구 효목동 1060,대구광역시 동구청,053-662-2472,35.858787,128.5567374,2020-06-30
"동촌유원지",전체,대구광역시,동구,기타,자가망,Public WiFi Free,2020-05,대구광역시 서구 당산로403,대구광역시 동구 효목동 1100-3,대구광역시 동구청,053-662-2472,35.8722732,128.5455773,2020-06-30
"동촌유원지",전체,대구광역시,동구,기타,자가망,Public WiFi Free,2020-05,대구광역시 서구 문화로123,대구광역시 동구 효목동 1010,대구광역시 동구청,053-662-2472,35.8743119,128.5463842,2020-06-30
"동촌유원지",전체,대구광역시,동구,기타,자가망,Public WiFi Free,2020-05,대구광역시 서구 국채보상로49길12,대구광역시 동구 효목동 979-2,대구광역시 동구청,053-662-2472,35.8722558,128.5576101,2020-06-30
"동촌유원지",전체,대구광역시,동구,기타,자가망,Public WiFi Free,2020-05,대구광역시 서구 국채보상로257,대구광역시 동구 효목동 1310,대구광역시 동구청,053-662-2472,35.8718022,128.5592204,2020-06-30
"터미널먹거리촌",전체,대구광역시,동구,기타,자가망,Public WiFi Free,2020-05,대구광역시 서구 서대구로97,대구광역시 동구 신천동 379-5,대구광역시 동구청,053-662-2472,35.8668266,128.555208,2020-06-30
"터미널먹거리촌",전체,대구광역시,동구,기타,자가망,Public WiFi Free,2020-05,대구광역시 서구 국채보상로161-1,대구광역시 동구 신천동 337-1,대구광역시 동구청,053-662-2472,35.8696202,128.5488325,2020-06-30
"터미널먹거리촌",전체,대구광역시,동구,기타,자가망,Public WiFi Free,2020-05,대구광역시 서구 달구벌대로1797,대구광역시 동구 신천동 368-7,대구광역시 동구청,053-662-2472,35.8595566,128.561413,2020-06-30
"동대구역 광장",전체,대구광역시,동구,기타,자가망,Public WiFi Free,2020-05,대구광역시 서구 팔달로170,대구광역시 동구 신암동 294,대구광역시 동구청,053-662-2472,35.8885948,128.5683954,2020-06-30
"혁신도시 중앙공원",전체,대구광역시,동구,기타,자가망,Public WiFi Free,2020-05,대구광역시 서구 평리로157,대구광역시 동구 신서동 1185,대구광역시 동구청,053-662-2472,35.8596025,128.5405922,2020-06-30
"원고개시장",대구유통 매장,대구광역시,서구,기타,SKT,Public WiFi Free,2020-12,대구광역시 서구 국채보상로49길12,대구광역시 서구 비산동 569-2,대구광역시 서구청,053-663-2473,35.8722558,128.5576101,2020-06-30
"종합자원봉사센터",사무실,대구광역시,서구,서민·복지시설,KT,Public WiFi Free,2020-12,대구광역시 서구 달서로54길6,대구광역시 서구 비산동 399-34,대구광역시 서구청,053-663-2473,35.8854506,128.5747371,2020-06-30
"서구문화회관",가로등,대구광역시,서구,서민·복지시설,SKT,Public WiFi Free,2020-12,대구광역시 서구 문화로122,대구광역시 서구 이현동 48-144,대구광역시 서구청,053-663-2473,35.873636,128.5457716,2020-06-30
"종합사회복지관",각층 복도천장,대구광역시,서구,서민·복지시설,SKT,Public WiFi Free,2020-12,대구광역시 서구 북비산로33길9-2,대구광역시 서구 내당동 67-9,대구광역시 서구청,053-663-2473,35.8802417,128.5515051,2020-06-30
"제일종합사회복지관",각층 복도천장,대구광역시,서구,서민·복지시설,SKT,Public WiFi Free,2020-12,대구광역시 서구 국채보상로78길29-4,대구광역시 서구 원대동3가 1120-1,대구광역시 서구청,053-663-2473,35.8698013,128.5743007,2020-06-30
"원대시장",시장내,대구광역시,서구,기타,KT,Public WiFi Free,2020-12,대구광역시 서구 국채보상로257,대구광역시 서구 원대동3가 1223-13,대구광역시 서구청,053-663-2473,35.8718022,128.5592204,2020-06-30
"대평리시장",시장내,대구광역시,서구,기타,KT,Public WiFi Free,2020-12,대구광역시 서구 서대구로295,대구광역시 서구 평리동 676-7,대구광역시 서구청,053-663-2473,35.8842282,128.5552275,2020-06-30
"중평시장",시장내,대구광역시,서구,기타,KT,Public WiFi Free,2020-12,대구광역시 서구 서대구로7길46,대구광역시 서구 평리동 1437-5,대구광역시 서구청,053-663-2473,35.8607456,128.5514497,2020-06-30
"소망모자원",사무실,대구광역시,서구,서민·복지시설,SKT,Public WiFi Free,2020-12,대구광역시 서구 국채보상로257,대구광역시 서구 상리동 644,대구광역시 서구청,053-663-2473,35.8718022,128.5592204,2020-06-30
"대구북부고용센터",민원실,대구광역시,서구,서민·복지시설,KT,Public WiFi Free,2020-12,대구광역시 서구 국채보상로31길12,대구광역시 서구 내당동469-3,대구광역시 서구청,053-663-2473,35.8702972,128.5478372,2020-06-30
"북부정류장",쉼터공원,대구광역시,서구,교통시설,LGU+,Public WiFi Free,2020-12,대구광역시 서구 서대구로3길46,대구광역시 서구 비산동 1856-3,대구광역시 서구청,053-663-2473,35.8589532,128.5517595,2020-06-30
"서구문화회관",1층 사무실,대구광역시,서구,서민·복지시설,SKT,Public WiFi Free,2020-12,대구광역시 서구 국채보상로81길43,대구광역시 서구 이현동 48-144,대구광역시 서구청,053-663-2473,35.8758308,128.5747396,2020-06-30
"서구청소년수련관",지하 통신실,대구광역시,서구,서민·복지시설,SKT,Public WiFi Free,2020-12,대구광역시 서구 북비산로65길18,대구광역시 서구 이현동 48-8,대구광역시 서구청,053-663-2473,35.8811578,128.5690168,2020-06-30
"서구어린이도서관",통신실,대구광역시,서구,서민·복지시설,SKT,Public WiFi Free,2020-12,대구광역시 서구 문화로67길3,대구광역시 서구 이현동 69-3,대구광역시 서구청,053-663-2473,35.8763083,128.5691039,2020-06-30
"중리동우체국",민원실,대구광역시,서구,기타,KT,Public WiFi Free,2020-12,대구광역시 서구 문화로280,대구광역시 서구 중리동 702-1,대구광역시 서구청,053-663-2473,35.8756065,128.5632981,2020-06-30
"서부도서관","휴게실, 디지털자료실",대구광역시,서구,서민·복지시설,SKT,Public WiFi Free,2020-12,대구광역시 서구 국채보상로46길37-3,대구광역시 서구 평리동 1230-1,대구광역시 서구청,053-663-2473,35.8673581,128.5568295,2020-06-30
"평리3동우체국",우체국,대구광역시,서구,기타,KT,Public WiFi Free,2020-12,대구광역시 서구 평리로35길90-6,대구광역시 서구 평리동 1072-27,대구광역시 서구청,053-663-2473,35.8679313,128.5442553,2020-06-30
"서구청",민원실,대구광역시,서구,관공서,KT,Public WiFi Free,2020-12,대구광역시 서구 달서로4길9-34,대구광역시 서구 평리동 1230-9,대구광역시 서구청,053-663-2473,35.8645979,128.5716777,2020-06-30
"보건복지회",사무실,대구광역시,서구,서민·복지시설,LGU+,Public WiFi Free,2020-12,대구광역시 서구 달서천로57길45,대구광역시 서구 평리동 1368-1,대구광역시 서구청,053-663-2473,35.8882513,128.5632503,2020-06-30
"서대구우체국",민원실,대구광역시,서구,기타,KT,Public WiFi Free,2020-12,대구광역시 남구 이천로 10,대구광역시 서구 평리동 1404-4,대구광역시 서구청,053-663-2473,35.8417075,128.5982576,2020-06-30
"평리5동우체국",민원실,대구광역시,서구,기타,KT,Public WiFi Free,2020-12,대구광역시 남구 이천로 51,대구광역시 서구 평리동 1535-12,대구광역시 서구청,053-663-2473,35.845792,128.5977724,2020-06-30
"서구청민원실",민원실,대구광역시,서구,관공서,SKT,Public WiFi Free,2020-12,대구광역시 남구 이천로 31,대구광역시 서구 평리동 1230-9,대구광역시 서구청,053-663-2473,35.8439533,128.5979457,2020-06-30
"농협두류점",민원실,대구광역시,서구,기타,KT,Public WiFi Free,2020-12,대구광역시 남구 두류공원로 20길 19,대구광역시 서구 내당동 219-8,대구광역시 서구청,053-663-2473,35.8459643,128.569528,2020-06-30
"내당역",역사,대구광역시,서구,교통시설,LGU+,Public WiFi Free,2020-12,대구광역시 남구 이천로 51,대구광역시 서구 내당동 63-1,대구광역시 서구청,053-663-2473,35.845792,128.5977724,2020-06-30
"비산5동",민원실,대구광역시,서구,관공서,LGU+,Public WiFi Free,2020-12,대구광역시 남구 월배로 496,대구광역시 서구 비산동 1041-3,대구광역시 서구청,053-663-2473,35.8367855,128.5577515,2020-06-30
"농협원대동",농협,대구광역시,서구,기타,KT,Public WiFi Free,2020-12,대구광역시 남구 대명서7길 24-3,대구광역시 서구 원대동1가 77,대구광역시 서구청,053-663-2473,35.8356279,128.5580035,2020-06-30
"대구의료원",민원실,대구광역시,서구,서민·복지시설,LGU+,Public WiFi Free,2020-12,대구광역시 남구 대명로 297,대구광역시 서구 중리동 1162,대구광역시 서구청,053-663-2473,35.844601,128.5883363,2020-06-30
"서부도서관",야외공원,대구광역시,서구,서민·복지시설,SKT,Public WiFi Free,2020-12,대구광역시 남구 중앙대로45길 53 (대명동),대구광역시 서구 평리동 1230-1,대구광역시 서구청,053-663-2473,35.85496884,128.5893078,2020-06-30
"신평리시장",시장내,대구광역시,서구,기타,SKT,Public WiFi Free,2020-12,대구광역시 남구 앞산순환로 478,대구광역시 서구 평리동 1205,대구광역시 서구청,053-663-2473,35.8313155,128.5770017,2020-06-30
"원대신시장",시장내,대구광역시,서구,기타,SKT,Public WiFi Free,2020-12,대구광역시 남구 큰골길 53,대구광역시 서구 원대동3가 1434-4,대구광역시 서구청,053-663-2473,35.83725432,128.5790384,2020-06-30
"서구시장",시장내,대구광역시,서구,기타,SKT,Public WiFi Free,2020-12,대구광역시 남구 대명로36길 63 (대명동),대구광역시 서구 평리동 1085-1,대구광역시 서구청,053-663-2473,35.8365922,128.5748682,2020-06-30
"청소년수련관",풋살경기장,대구광역시,서구,서민·복지시설,SKT,Public WiFi Free,2020-12,대구광역시 남구 이천로28길 18 (이천동),대구광역시 서구 이현동 48-8,대구광역시 서구청,053-663-2473,35.8537053,128.599446,2020-06-30
"신애보육원",옥상,대구광역시,서구,서민·복지시설,SKT,Public WiFi Free,2020-12,대구광역시 남구 명덕로34길 16,대구광역시 서구 평리동 421-1,대구광역시 서구청,053-663-2473,35.8558869,128.587132,2020-06-30
"장애인보호작업장",아파트 상가,대구광역시,서구,서민·복지시설,KT,Public WiFi Free,2020-12,대구광역시 남구 중앙대로22길 242,대구광역시 서구 평리동 1354-1,대구광역시 서구청,053-663-2473,35.84172005,128.6038296,2020-06-30
"비산4동주민센터",헬스장,대구광역시,서구,관공서,KT,Public WiFi Free,2020-12,대구광역시 남구 큰골길 137,대구광역시 서구 비산동 213-18,대구광역시 서구청,053-663-2473,35.8361751,128.5837978,2020-06-30
"평리2동주민센터",헬스장,대구광역시,서구,관공서,KT,Public WiFi Free,2020-12,대구광역시 남구 명덕로 60,대구광역시 서구 평리동 1100-7,대구광역시 서구청,053-663-2473,35.8583489,128.5771776,2020-06-30
"보건소",민원실,대구광역시,서구,서민·복지시설,KT,Public WiFi Free,2020-12,대구광역시 남구 명덕시장길 90,대구광역시 서구 평리동 1230-9,대구광역시 서구청,053-663-2473,35.84503658,128.5879741,2020-06-30
"노인복지관",사무실,대구광역시,서구,서민·복지시설,KT,Public WiFi Free,2020-12,대구광역시 남구 봉덕로 115,대구광역시 서구 평리1동1044-4,대구광역시 서구청,053-663-2473,35.8450317,128.6032686,2020-06-30
"북부정류장",쉼터공원,대구광역시,서구,교통시설,KT,Public WiFi Free,2020-12,대구광역시 남구 월배로 496,대구광역시 서구 비산동 1856-3,대구광역시 서구청,053-663-2473,35.8367855,128.5577515,2020-06-30
"구민건강증진센터",민원실,대구광역시,서구,서민·복지시설,KT,Public WiFi Free,2020-12,대구광역시 남구 성당로 196,대구광역시 서구 비산동 42-107,대구광역시 서구청,053-663-2473,35.8502825,128.5731304,2020-06-30
"건강생활지원센터",민원실,대구광역시,서구,서민·복지시설,KT,Public WiFi Free,2020-12,대구광역시 남구 큰골길 146,대구광역시 서구 내당동 305-22,대구광역시 서구청,053-663-2473,35.8357167,128.5837225,2020-06-30
"서구청(별관)",정보화교육장,대구광역시,서구,관공서,KT,Public WiFi Free,2020-12,대구광역시 남구 중앙대로 46길 15,대구광역시 서구 평리동 1230-9,대구광역시 서구청,053-663-2473,35.8521623,128.5921762,2020-06-30
"이현시장",시장내,대구광역시,서구,기타,KT,Public WiFi Free,2020-12,대구광역시 남구 명덕로 46,대구광역시 서구 평리동 606-8,대구광역시 서구청,053-663-2473,35.8591203,128.5758889,2020-06-30
"중리시장",시장내,대구광역시,서구,기타,KT,Public WiFi Free,2020-12,대구광역시 남구 대명복개로4길 166,대구광역시 서구 평리동 1538-3,대구광역시 서구청,053-663-2473,35.84002858,128.5689557,2020-06-30
"내당1동주민센터",민원실,대구광역시,서구,관공서,KT,Public WiFi Free,2020-12,대구광역시 남구 관문시장4길 53,대구광역시 서구 내당동 214-33,대구광역시 서구청,053-663-2473,35.83624038,128.5606341,2020-06-30
"내당4동주민센터",민원실,대구광역시,서구,관공서,KT,Public WiFi Free,2020-12,대구광역시 남구 두류공원로 38,대구광역시 서구 내당동 354-7,대구광역시 서구청,053-663-2473,35.8417305,128.5735803,2020-06-30
"내당2,3동","민원실,회의실",대구광역시,서구,관공서,SKT,Public WiFi Free,2020-12,대구광역시 남구 명덕로32길 30,대구광역시 서구 내당동100,대구광역시 서구청,053-663-2473,35.8552846,128.5864555,2020-06-30
"비산2,3동",민원실,대구광역시,서구,관공서,KT,Public WiFi Free,2020-12,대구광역시 남구 명덕로20길 115,대구광역시 서구 비산동 125-22,대구광역시 서구청,053-663-2473,35.8523781,128.5791382,2020-06-30
"비산1동",요가실,대구광역시,서구,관공서,SKT,Public WiFi Free,2020-12,대구광역시 남구 대명로58길 11,대구광역시 서구 비산동716-8,대구광역시 서구청,053-663-2473,35.8432344,128.5878291,2020-06-30
"비산5동",청사입구,대구광역시,서구,관공서,KT,Public WiFi Free,2020-12,대구광역시 북구 칠곡중앙대로 91길 21,대구광역시 서구 비산동1185-41,대구광역시 서구청,053-663-2473,35.93623885,128.5466992,2020-06-30
"비산6동",민원실,대구광역시,서구,관공서,SKT,Public WiFi Free,2020-12,대구광역시 북구 대천로 81,대구광역시 서구 비산동491-1,대구광역시 서구청,053-663-2473,35.937318,128.5581853,2020-06-30
"비산7동",민원실,대구광역시,서구,관공서,KT,Public WiFi Free,2020-12,대구광역시 북구 구암로42길 7,대구광역시 서구 비산동1890-2,대구광역시 서구청,053-663-2473,35.9308266,128.562864,2020-06-30
"평리1동",통신실,대구광역시,서구,관공서,SKT,Public WiFi Free,2020-12,대구광역시 북구 검단동로4길 16-2,대구광역시 서구 평리동1044-1,대구광역시 서구청,053-663-2473,35.9136041,128.6273052,2020-06-30
"평리3동",민원실,대구광역시,서구,관공서,KT,Public WiFi Free,2020-12,대구광역시 북구 고성로31길 21,대구광역시 서구 평리동931-1,대구광역시 서구청,053-663-2473,35.881909,128.5835861,2020-06-30
"평리4동",민원실,대구광역시,서구,관공서,SKT,Public WiFi Free,2020-12,대구광역시 북구 매천로18길 34,대구광역시 서구 평리동1346-3,대구광역시 서구청,053-663-2473,35.9028168,128.5430417,2020-06-30
"상중이동",민원실,대구광역시,서구,관공서,KT,Public WiFi Free,2020-12,대구광역시 북구 노곡로 25 (노곡동),대구광역시 서구 중리동1082-11,대구광역시 서구청,053-663-2473,35.906434,128.5627709,2020-06-30
"원대동",민원실,대구광역시,서구,관공서,SKT,Public WiFi Free,2020-12,대구광역시 북구 관음동로 125,대구광역시 서구 원대3가동1315-2,대구광역시 서구청,053-663-2473,35.9442414,128.5473329,2020-06-30
"새길시장",시장내,대구광역시,서구,기타,KT,Public WiFi Free,2020-12,대구광역시 북구 구리로 188,대구광역시 서구 내당동 968-103,대구광역시 서구청,053-663-2473,35.9480155,128.5754049,2020-06-30
"서부시장",카페 그자리에,대구광역시,서구,기타,SKT,Public WiFi Free,2020-12,대구광역시 북구 옥산로 65,대구광역시 서구 비산동 434-13,대구광역시 서구청,053-663-2473,35.885724,128.5829108,2020-06-30
"만평시장",참기름집,대구광역시,서구,기타,SKT,Public WiFi Free,2020-12,대구광역시 북구 대동로1길 34 (산격동),대구광역시 서구 비산동1247-3,대구광역시 서구청,053-663-2473,35.8984215,128.6105282,2020-06-30
"반고개무침회골목",푸른회식당(반고개의성무침회),대구광역시,서구,기타,SKT,Public WiFi Free,2020-12,대구광역시 북구 호국로43길 27 (서변동),대구광역시 서구 내당동 13-1,대구광역시 서구청,053-663-2473,35.9210136,128.5961905,2020-06-30
"남구 다문화가족지원센터",휴게실,대구광역시,남구,서민·복지시설,LGU+,Public WiFi Free,2020-10,대구광역시 북구 칠곡중앙대로 526 (읍내동),대구광역시 남구 봉덕동 624-14,대구광역시 남구청,053-664-2474,35.9423746,128.5511118,2020-06-30
"남구 보건소",민원실,대구광역시,남구,관공서,LGU+,Public WiFi Free,2020-10,대구광역시 북구 팔달로33길 59 (노원동3가),대구광역시 남구 대명동 2003번지,대구광역시 남구청,053-664-2474,35.8907044,128.5659881,2020-06-30
"남구청",민원실,대구광역시,남구,관공서,LGU+,Public WiFi Free,2020-10,대구광역시 북구 대현남로 25,대구광역시 남구 봉덕동 565-5번지,대구광역시 남구청,053-664-2474,35.8816289,128.6052294,2020-06-30
"대구여성의전화부설성(가정)폭력상담소",휴게실,대구광역시,남구,서민·복지시설,LGU+,Public WiFi Free,2020-10,대구광역시 북구 대천로 81,대구광역시 남구 봉덕동 650-8,대구광역시 남구청,053-664-2474,35.937318,128.5581853,2020-06-30
"대덕문화전당",로비,대구광역시,남구,관공서,LGU+,Public WiFi Free,2020-03,대구광역시 북구 복현로8길 16-5,대구광역시 남구 대명9동 산201-4,대구광역시 남구청,053-664-2474,35.8953539,128.6254941,2020-06-30
"대명4동행정복지센터",민원실,대구광역시,남구,관공서,LGU+,Public WiFi Free,2020-10,대구광역시 북구 성북로 49,대구광역시 남구 대명동 3043-34,대구광역시 남구청,053-664-2474,35.8918696,128.5889017,2020-06-30
"대명6동행정복지센터",민원실,대구광역시,남구,관공서,LGU+,Public WiFi Free,2020-10,대구광역시 북구 동북로31길 30,대구광역시 남구 대명동 1086-1,대구광역시 남구청,053-664-2474,35.90173199,128.609253,2020-06-30
"봉덕1동행정복지센터",민원실,대구광역시,남구,관공서,LGU+,Public WiFi Free,2020-10,대구광역시 북구 대구체육관로 48,대구광역시 남구 봉덕동 565-5,대구광역시 남구청,053-664-2474,35.8922329,128.604311,2020-06-30
"봉덕3동행정복지센터",민원실,대구광역시,남구,관공서,LGU+,Public WiFi Free,2020-10,대구광역시 북구 동북로71길 9-29,대구광역시 남구 봉덕동 702-6,대구광역시 남구청,053-664-2474,35.8930477,128.6301072,2020-06-30
"서부터미널(관문시장 외)",대합실,대구광역시,남구,교통시설,LGU+,Public WiFi Free,2020-10,대구광역시 북구 칠성시장로 34,대구광역시 남구 대명동 1135-1,대구광역시 남구청,053-664-2474,35.8772404,128.6039645,2020-06-30
"서부터미널2",대합실,대구광역시,남구,교통시설,LGU+,Public WiFi Free,2020-10,대구광역시 북구 칠성시장로 34,대구광역시 남구 대명동 1135-1,대구광역시 남구청,053-664-2474,35.8772404,128.6039645,2020-06-30
"관문시장",시장내,대구광역시,남구,기타,SKT,Public WiFi Free,2020-10,대구광역시 북구 침산남로13길 16,대구광역시 남구 대명동 1135-4번지,대구광역시 남구청,053-664-2474,35.8903277,128.5812786,2020-06-30
"대구수화통역센터",휴게실,대구광역시,남구,서민·복지시설,SKT,Public WiFi Free,2020-10,대구광역시 북구 성북로 55,대구광역시 남구 대명동 142-8번지,대구광역시 남구청,053-664-2474,35.8920297,128.5893493,2020-06-30
"남구시니어클럽",휴게실,대구광역시,남구,서민·복지시설,SKT,Public WiFi Free,2020-10,대구광역시 북구 칠곡중앙대로52길 32,대구광역시 남구 이천동 318-5,대구광역시 남구청,053-664-2474,35.9214822,128.5487684,2020-06-30
"남구청소년창작센터",휴게실,대구광역시,남구,지역문화시설,SKT,Public WiFi Free,2020-10,대구광역시 북구 동암로 180,대구광역시 남구 대명동 1803-31,대구광역시 남구청,053-664-2474,35.9428816,128.570319,2020-06-30
"남부시장",시장내,대구광역시,남구,서민·복지시설,SKT,Public WiFi Free,2020-10,대구광역시 수성구 파동로51길 26-17(파동),대구광역시 남구 대명동 797-1,대구광역시 남구청,053-664-2474,35.8265788,128.6070623,2020-06-30
"대덕문화전당",로비,대구광역시,남구,관공서,SKT,Public WiFi Free,2020-10,대구광역시 수성구 파동로51길 74(파동),대구광역시 남구 대명동 산201-4,대구광역시 남구청,053-664-2474,35.8228231,128.608831,2020-06-30
"대명9동행정복지센터",민원실,대구광역시,남구,관공서,SKT,Public WiFi Free,2020-10,대구광역시 수성구 청수로35길 47(황금동),대구광역시 남구 대명동 2680-7,대구광역시 남구청,053-664-2474,35.8411411,128.6299045,2020-06-30
"봉덕2동행정복지센터",민원실,대구광역시,남구,관공서,SKT,Public WiFi Free,2020-10,대구광역시 수성구 무열로 171(만촌동),대구광역시 남구 봉덕동 540-1,대구광역시 남구청,053-664-2474,35.8732722,128.6465117,2020-06-30
"안지랑시장",시장내,대구광역시,남구,서민·복지시설,SKT,Public WiFi Free,2020-10,대구광역시 수성구 달구벌대로 2450(범어동),대구광역시 남구 대명동 872-1,대구광역시 남구청,053-664-2474,35.8580437,128.630552,2020-06-30
"이천동주민센터",민원실,대구광역시,남구,관공서,SKT,Public WiFi Free,2020-10,대구광역시 수성구 신천동로84길 21(수성동4가),대구광역시 남구 이천동 383-22,대구광역시 남구청,053-664-2474,35.8619736,128.6113392,2020-06-30
"대구시청소년문화의집",휴게실,대구광역시,남구,서민·복지시설,SKT,Public WiFi Free,2020-10,대구광역시 수성구 파동로51길 56(파동),대구광역시 남구 대명2동 1822-2,대구광역시 남구청,053-664-2474,35.8235825,128.6083675,2020-06-30
"대구아동복지센터",휴게실,대구광역시,남구,서민·복지시설,SKT,Public WiFi Free,2020-10,대구광역시 수성구 신천동로 280(수성동1가),대구광역시 남구 봉덕2동 920-4번지,대구광역시 남구청,053-664-2474,35.8495119,128.6094124,2020-06-30
"대덕노인종합복지관",휴게실,대구광역시,남구,서민·복지시설,SKT,Public WiFi Free,2020-10,대구광역시 수성구 고산로 152(매호동),대구광역시 남구 대명동 439번지,대구광역시 남구청,053-664-2474,35.8440476,128.7066132,2020-06-30
"대명시장 및 대명신시장",시장내,대구광역시,남구,서민·복지시설,SKT,Public WiFi Free,2020-10,대구광역시 수성구 들안로9길 56(상동),대구광역시 남구 대명동 2276-5번지,대구광역시 남구청,053-664-2474,35.8321593,128.6154835,2020-06-30
"명덕시장",시장내,대구광역시,남구,서민·복지시설,SKT,Public WiFi Free,2020-10,대구광역시 수성구 지범로21길 16(지산동),대구광역시 남구 대명5동 139-1,대구광역시 남구청,053-664-2474,35.8247805,128.6370564,2020-06-30
"봉덕신시장",시장내,대구광역시,남구,서민·복지시설,SKT,Public WiFi Free,2020-10,대구광역시 수성구 청호로57길 10(황금동),대구광역시 남구 봉덕1동 955-80,대구광역시 남구청,053-664-2474,35.843988,128.6381642,2020-06-30
"서부정류장",대합실,대구광역시,남구,교통시설,SKT,Public WiFi Free,2020-10,대구광역시 수성구 청수로31길 45 (황금동),대구광역시 남구 대명동 1135-1,대구광역시 남구청,053-664-2474,35.8415612,128.6252321,2020-06-30
"성당시장",시장내,대구광역시,남구,서민·복지시설,SKT,Public WiFi Free,2020-10,대구광역시 수성구 수성로50길 38 (중동),대구광역시 남구 대명동 3023-23번지,대구광역시 남구청,053-664-2474,35.8473837,128.6151041,2020-06-30
"앞산베네스트",휴게실,대구광역시,남구,서민·복지시설,SKT,Public WiFi Free,2020-10,대구광역시 수성구 무학로 112 (두산동),대구광역시 남구 대명동 472-12번지,대구광역시 남구청,053-664-2474,35.8292435,128.6209285,2020-06-30
"영선시장",시장내,대구광역시,남구,서민·복지시설,SKT,Public WiFi Free,2020-10,대구광역시 수성구 들안로 287,대구광역시 남구 대명동 1999-7번지,대구광역시 남구청,053-664-2474,35.8557848,128.6170511,2020-06-30
"웰빙전통안마센터",휴게실,대구광역시,남구,서민·복지시설,SKT,Public WiFi Free,2020-10,대구광역시 수성구 들안로 392,대구광역시 남구 대명동 2275-1번지,대구광역시 남구청,053-664-2474,35.8650802,128.618422,2020-06-30
"대명10동행정복지센터",민원실,대구광역시,남구,관공서,KT,Public WiFi Free,2020-10,대구광역시 수성구 들안로 281,대구광역시 남구 대명동 1624-21,대구광역시 남구청,053-664-2474,35.8551058,128.6167525,2020-06-30
"대명11동행정복지센터",민원실,대구광역시,남구,관공서,KT,Public WiFi Free,2020-10,대구광역시 수성구 욱수천로 99,대구광역시 남구 대명동 1180,대구광역시 남구청,053-664-2474,35.83698958,128.7128214,2020-06-30
"대명1동행정복지센터",민원실,대구광역시,남구,관공서,KT,Public WiFi Free,2020-10,대구광역시 수성구 성동로 74-16,대구광역시 남구 대명동 1652-1,대구광역시 남구청,053-664-2474,35.8423746,128.7243619,2020-06-30
"대명2동행정복지센터",민원실,대구광역시,남구,관공서,KT,Public WiFi Free,2020-10,대구광역시 달서구 계대동문로 77 (이곡동),대구광역시 남구 대명동 1827,대구광역시 남구청,053-664-2474,35.8558089,128.5008392,2020-06-30
"대명3동행정복지센터",민원실,대구광역시,남구,관공서,KT,Public WiFi Free,2020-10,대구광역시 달서구 와룡로10안길 11 (본동),대구광역시 남구 대명동 2144-3,대구광역시 남구청,053-664-2474,35.8361317,128.5394677,2020-06-30
"대명5동행정복지센터",민원실,대구광역시,남구,관공서,KT,Public WiFi Free,2020-10,대구광역시 달서구 성서공단북로59길 13 (갈산동),대구광역시 남구 대명동 150,대구광역시 남구청,053-664-2474,35.8457718,128.505151,2020-06-30
"강북노인복지관",복지관내,대구광역시,북구,서민·복지시설,LGU+,Public WiFi Free,2020-10,대구광역시 달서구 달구벌대로291길 100 (용산동),대구광역시 북구 관음동 1372,대구광역시 북구청,053-665-2477,35.8534129,128.5251887,2020-06-30
"강북보건지소",민원실,대구광역시,북구,관공서,KT,Public WiFi Free,2020-10,대구광역시 달서구 진천로3길 80 (진천동),대구광역시 북구 동천동 930-2,대구광역시 북구청,053-665-2477,35.8105822,128.5211776,2020-06-30
"강북장애인주간보호센터",건물 내,대구광역시,북구,서민·복지시설,SKT,Public WiFi Free,2020-10,대구광역시 달서구 용산로 181 (용산동),대구광역시 북구 구암동 450-1,대구광역시 북구청,053-665-2477,35.8530407,128.5294985,2020-06-30
"검단동주민센터",민원실,대구광역시,북구,관공서,KT,Public WiFi Free,2020-10,대구광역시 달서구 월배로24길 13 (진천동),대구광역시 북구 검단동 1266-1,대구광역시 북구청,053-665-2477,35.814063,128.5274149,2020-06-30
"고성동 주민센터",민원실,대구광역시,북구,관공서,KT,Public WiFi Free,2020-10,대구광역시 달서구 도원로동길 8 (도원동),대구광역시 북구 고성동3가 6-270,대구광역시 북구청,053-665-2477,35.8076078,128.5367641,2020-06-30
"관문동 주민센터",민원실,대구광역시,북구,관공서,KT,Public WiFi Free,2020-10,대구광역시 달서구 송현로12안길 38 (송현동),대구광역시 북구 매천동 527-3,대구광역시 북구청,053-665-2477,35.8226744,128.5481495,2020-06-30
"관문동주민센터(노곡분소)",민원실,대구광역시,북구,관공서,SKT,Public WiFi Free,2020-10,대구광역시 달서구 달구벌대로301길 187-11 (용산동),대구광역시 북구 노곡동 318,대구광역시 북구청,053-665-2477,35.858059,128.531186,2020-06-30
"관음동 주민센터",민원실,대구광역시,북구,관공서,KT,Public WiFi Free,2020-10,대구광역시 달서구 당산동길 9 (성당동),대구광역시 북구 관음동 1284-10,대구광역시 북구청,053-665-2477,35.8454987,128.5451614,2020-06-30
"관음시장",관음시장 일대,대구광역시,북구,편의시설,SKT,Public WiFi Free,2020-10,대구광역시 달서구 달구벌대로291길 100 (용산동),대구광역시 북구 관음동 1284,대구광역시 북구청,053-665-2477,35.8534129,128.5251887,2020-06-30
"국우동 주민센터",민원실,대구광역시,북구,관공서,KT,Public WiFi Free,2020-10,대구광역시 달서구 달구벌대로291길 100 (용산동),대구광역시 북구 국우동 1109-5,대구광역시 북구청,053-665-2477,35.8534129,128.5251887,2020-06-30
"노원동 주민센터",민원실,대구광역시,북구,관공서,KT,Public WiFi Free,2020-10,대구광역시 달서구 성서동로53안길 45 (갈산동),대구광역시 북구 노원동2가 211,대구광역시 북구청,053-665-2477,35.8483546,128.5131072,2020-06-30
"대구북구청",민원실,대구광역시,북구,관공서,LGU+,Public WiFi Free,2020-10,대구광역시 달서구 앞산순환로 180 (송현동),대구광역시 북구 침산동 447-16,대구광역시 북구청,053-665-2477,35.8204704,128.5533069,2020-06-30
"산격종합시장",산격종합시장 일대,대구광역시,북구,편의시설,SKT,Public WiFi Free,2020-10,대구광역시 달서구 상화로 420 (상인동),대구광역시 북구 산격동 1258,대구광역시 북구청,053-665-2477,35.8071988,128.5594488,2020-06-30
"상록뇌성마비복지관",복지관내,대구광역시,북구,서민·복지시설,SKT,Public WiFi Free,2020-10,대구광역시 달서구 성당로51길 32 (두류동),대구광역시 북구 산격동 608-2,대구광역시 북구청,053-665-2477,35.8556984,128.5722139,2020-06-30
"서변중앙시장",서변중앙시장 일대,대구광역시,북구,편의시설,SKT,Public WiFi Free,2020-10,대구광역시 달서구 야외음악당로39길 24 (두류동),대구광역시 북구 서변동 1751,대구광역시 북구청,053-665-2477,35.853712,128.5554918,2020-06-30
"선린장애인주간보호센터",건물 내,대구광역시,북구,서민·복지시설,SKT,Public WiFi Free,2020-10,대구광역시 달서구 감삼북길 119-10 (감삼동),대구광역시 북구 관음동 477-1,대구광역시 북구청,053-665-2477,35.8510218,128.5422101,2020-06-30
"칠곡공설시장",칠성시장 일대,대구광역시,북구,편의시설,SKT,Public WiFi Free,2020-10,대구광역시 달서구 와룡로54길 28 (죽전동),대구광역시 북구 읍내동 1201-1,대구광역시 북구청,053-665-2477,35.855797,128.5398201,2020-06-30
"팔달신시장",팔달신시장 일대,대구광역시,북구,편의시설,SKT,Public WiFi Free,2020-10,대구광역시 달서구 장기로 277 (장기동),대구광역시 북구 노원동3가 750,대구광역시 북구청,053-665-2477,35.8433981,128.5299636,2020-06-30
"대불노인복지관",복지관내,대구광역시,북구,서민·복지시설,SKT,Public WiFi Free,2020-10,대구광역시 달서구 용산로 212-7 (용산동),대구광역시 북구 복현동 536,대구광역시 북구청,053-665-2477,35.8566419,128.5312386,2020-06-30
"대현동주민센터",민원실,대구광역시,북구,관공서,KT,Public WiFi Free,2020-10,대구광역시 달서구 선원로 278 (용산동),대구광역시 북구 대현동 531,대구광역시 북구청,053-665-2477,35.858431,128.5230185,2020-06-30
"동대구시장",동대구시장 일대,대구광역시,북구,편의시설,KT,Public WiFi Free,2020-10,대구광역시 달서구 달구벌대로 1309 (이곡동),대구광역시 북구 대현동 390,대구광역시 북구청,053-665-2477,35.8516557,128.5106752,2020-06-30
"동천동 주민센터",민원실,대구광역시,북구,관공서,KT,Public WiFi Free,2020-10,대구광역시 달서구 계대동문로 77 (이곡동),대구광역시 북구 동천동 930-2,대구광역시 북구청,053-665-2477,35.8558089,128.5008392,2020-06-30
"무태조야동 분소",민원실,대구광역시,북구,관공서,KT,Public WiFi Free,2020-10,대구광역시 달서구 선원로 60 (신당동),대구광역시 북구 조야동 436-24,대구광역시 북구청,053-665-2477,35.8589763,128.4988484,2020-06-30
"복현2동주민센터",민원실,대구광역시,북구,관공서,KT,Public WiFi Free,2020-10,대구광역시 달서구 조암남로 97 (월성동),대구광역시 북구 복현동 산107-3,대구광역시 북구청,053-665-2477,35.8195332,128.5228739,2020-06-30
"북구보건소",민원실,대구광역시,북구,관공서,KT,Public WiFi Free,2020-10,대구광역시 달서구 월성로 65 (월성동),대구광역시 북구 침산동 521-2,대구광역시 북구청,053-665-2477,35.8309599,128.5283025,2020-06-30
"산격1동주민센터",민원실,대구광역시,북구,관공서,KT,Public WiFi Free,2020-10,대구광역시 달서구 진천로9길 33 (진천동),대구광역시 북구 산격동 848-61,대구광역시 북구청,053-665-2477,35.8122214,128.5228091,2020-06-30
"산격2동주민센터",민원실,대구광역시,북구,관공서,KT,Public WiFi Free,2020-10,대구광역시 달서구 상인서로 40 (상인동),대구광역시 북구 산격동 500-1,대구광역시 북구청,053-665-2477,35.8142773,128.5450464,2020-06-30
"산격3동주민센터",민원실,대구광역시,북구,관공서,KT,Public WiFi Free,2020-10,대구광역시 달서구 상원로 27 (상인동),대구광역시 북구 산격동 1393-27,대구광역시 북구청,053-665-2477,35.81255487,128.5362895,2020-06-30
"산격4동주민센터",민원실,대구광역시,북구,관공서,KT,Public WiFi Free,2020-10,대구광역시 달서구 상인로 25 (상인동),대구광역시 북구 산격동 1490,대구광역시 북구청,053-665-2477,35.8100742,128.5502339,2020-06-30
"성림효사랑 실버타운",건물 내,대구광역시,북구,서민·복지시설,KT,Public WiFi Free,2020-10,대구광역시 달서구 한실로 53 (도원동),대구광역시 북구 대현동 411-4,대구광역시 북구청,053-665-2477,35.8074901,128.5322212,2020-06-30
"성보재활원",건물 내,대구광역시,북구,서민·복지시설,KT,Public WiFi Free,2020-10,대구광역시 달서구 중흥로8길 41 (송현동),대구광역시 북구 복현동 315,대구광역시 북구청,053-665-2477,35.8291236,128.5547781,2020-06-30
"칠성시장",칠성시장 일대,대구광역시,북구,편의시설,KT,Public WiFi Free,2020-10,대구광역시 달서구 월배로83길 120-14 (송현동),대구광역시 북구 칠성동1가 276-102,대구광역시 북구청,053-665-2477,35.8327943,128.5456058,2020-06-30
"칠성시장 (삼성)",칠성시장 일대,대구광역시,북구,편의시설,KT,Public WiFi Free,2020-10,대구광역시 달서구 구마로26길 62 (본동),대구광역시 북구 칠성동1가 276-102,대구광역시 북구청,053-665-2477,35.8344453,128.5410812,2020-06-30
"칠성시장 (청과)",칠성시장 일대,대구광역시,북구,편의시설,KT,Public WiFi Free,2020-10,대구광역시 달서구 학산로 45 (월성동),대구광역시 북구 칠성동1가 276-102,대구광역시 북구청,053-665-2477,35.8297339,128.5326441,2020-06-30
"칠성시장 (경명)",칠성시장 일대,대구광역시,북구,편의시설,KT,Public WiFi Free,2020-10,대구광역시 달서구 계대동문로 79 (이곡동),대구광역시 북구 칠성동1가 276-102,대구광역시 북구청,053-665-2477,35.85578221,128.5011352,2020-06-30
"침산1동주민센터",민원실,대구광역시,북구,관공서,KT,Public WiFi Free,2020-10,대구광역시 달서구 진천로9길 33 (진천동),대구광역시 북구 침산동 1660-4,대구광역시 북구청,053-665-2477,35.8122214,128.5228091,2020-06-30
"침산2동 주민센터",민원실,대구광역시,북구,관공서,KT,Public WiFi Free,2020-10,대구광역시 달서구 당산로 37-14 (본리동),대구광역시 북구 침산동 5-1,대구광역시 북구청,053-665-2477,35.84101503,128.5431658,2020-06-30
"침산3동주민센터",민원실,대구광역시,북구,관공서,KT,Public WiFi Free,2020-10,대구광역시 달서구 학산로7길 39 (월성동),대구광역시 북구 침산동 521-5,대구광역시 북구청,053-665-2477,35.8326319,128.530545,2020-06-30
"태전1동주민센터",민원실,대구광역시,북구,관공서,KT,Public WiFi Free,2020-10,대구광역시 달서구 신당로 56 (신당동),대구광역시 북구 태전동 255-28,대구광역시 북구청,053-665-2477,35.8527016,128.4979101,2020-06-30
"태전2동주민센터",민원실,대구광역시,북구,관공서,KT,Public WiFi Free,2020-10,대구광역시 달서구 신당로 55 (신당동),대구광역시 북구 태전동 628-5,대구광역시 북구청,053-665-2477,35.8547496,128.4978565,2020-06-30
"태전중앙시장",태전중앙시장 일대,대구광역시,북구,편의시설,LGU+,Public WiFi Free,2020-10,대구광역시 달서구 조암남로20길 48 (월성동),대구광역시 북구 태전동 156-1,대구광역시 북구청,053-665-2477,35.8217602,128.521462,2020-06-30
"함지노인복지관",건물 내,대구광역시,북구,서민·복지시설,SKT,Public WiFi Free,2020-10,대구광역시 달서구 앞산순환로 248 (송현동),대구광역시 북구 구암동 773-1,대구광역시 북구청,053-665-2477,35.82324193,128.557038,2020-06-30
"태전공원",공원 내,대구광역시,북구,서민·복지시설,KT(구청 자체 설치),Public WiFi Free,2020-10,대구광역시 달서구 조암남로 137 (대천동),대구광역시 북구 태전동 938,대구광역시 북구청,000-0000-0000,35.81748676,128.5191877,2020-06-30
"대구장애인종합복지관",휴게실,대구광역시,수성구,서민·복지시설,LGU+,Public WiFi Free,2020-10,대구광역시 달성군 논공읍 논공로 242,대구광역시 수성구 파동 1-1,한국통신사업자협회,1899-4876,35.7233173,128.4545652,2020-06-30
"애활원",휴게실,대구광역시,수성구,서민·복지시설,LGU+,Public WiFi Free,2020-10,대구광역시 달성군 화원읍 성천로 39,대구광역시 수성구 파동 13-5,한국통신사업자협회,1899-4876,35.8018248,128.4874588,2020-06-30
"황금시장",시장 입구,대구광역시,수성구,서민·복지시설,LGU+,Public WiFi Free,2020-10,대구광역시 달성군 옥포면 옥포로 13,대구광역시 수성구 황금2동 764,한국통신사업자협회,1899-4876,35.7888974,128.4717664,2020-06-30
"노인종합복지회관",휴게실,대구광역시,수성구,서민·복지시설,LGU+,Public WiFi Free,2020-10,대구광역시 달성군 가창면 우록길 206,대구광역시 수성구 황금동 478-4,한국통신사업자협회,1899-4876,35.7226391,128.6465416,2020-06-30
SOS아동보호센터,휴게실,대구광역시,수성구,서민·복지시설,KT,Public WiFi Free,2020-10,대구광역시 달성군 논공읍 논공로 252,대구광역시 수성구 만촌1동 636-4,한국통신사업자협회,1899-4876,35.7238941,128.4550625,2020-06-30
"수성구청 별관",민원실,대구광역시,수성구,관공서,KT,Public WiFi Free,2020-10,대구광역시 달성군 현풍면 현풍동로 180,대구광역시 수성구 범어동 238-3,한국통신사업자협회,1899-4876,35.70169037,128.4418193,2020-06-30
"수성구청 본관",민원실,대구광역시,수성구,관공서,KT,Public WiFi Free,2020-10,대구광역시 달성군 논공읍 달성군청로 33,대구광역시 수성구 범어동 238-3,한국통신사업자협회,1899-4876,35.7745414,128.4313244,2020-06-30
"성림아동원",휴게실,대구광역시,수성구,서민·복지시설,KT,Public WiFi Free,2020-10,대구광역시 달성군 화원읍 비슬로 2594,대구광역시 수성구 사월동 9,한국통신사업자협회,1899-4876,35.803907,128.500813,2020-06-30
"인제요양원",휴게실,대구광역시,수성구,서민·복지시설,KT,Public WiFi Free,2020-10,대구광역시 달성군 옥포면 비슬로 2215,대구광역시 수성구 수성동4가 1225-2,한국통신사업자협회,1899-4876,35.7893104,128.4638592,2020-06-30
"애망요양원",휴게실,대구광역시,수성구,서민·복지시설,KT,Public WiFi Free,2020-10,대구광역시 달성군 유가읍 휴양림길 375,대구광역시 수성구 파동 18,한국통신사업자협회,1899-4876,35.70013059,128.4989673,2020-06-30
"수성구보건소",민원실,대구광역시,수성구,서민·복지시설,SKT,Public WiFi Free,2020-10,대구광역시 달성군 유가읍 음동1길 9,대구광역시 수성구 중동 266-5,한국통신사업자협회,1899-4876,35.69757655,128.4828252,2020-06-30
"수성현대시장",시장 입구,대구광역시,수성구,서민·복지시설,LGU+,Public WiFi Free,2020-10,대구광역시 달성군 논공읍 비슬로 1779,대구광역시 수성구 수성동1가 649-76,한국통신사업자협회,1899-4876,35.7742545,128.4201906,2020-06-30
"고산1동주민센터",민원실,대구광역시,수성구,관공서,KT,Public WiFi Free,2020-12,대구광역시 달성군 현풍면 비슬로134길 157,대구광역시 수성구 신매동 193-1,한국통신사업자협회,1899-4876,35.6973681,128.4476609,2020-06-30
"고산3동주민센터",민원실,대구광역시,수성구,관공서,KT,Public WiFi Free,2020-12,대구광역시 달성군 다사읍 매곡로 12길 37,대구광역시 수성구 매호동 1325-6,한국통신사업자협회,1899-4876,35.86481448,128.4573053,2020-06-30
"상동주민센터",민원실,대구광역시,수성구,관공서,SKT,Public WiFi Free,2020-12,대구광역시 달성군 하빈면 하빈로 423,대구광역시 수성구 상동 400,한국통신사업자협회,1899-4876,35.9017047,128.4448339,2020-06-30
"고산2동주민센터",민원실,대구광역시,수성구,관공서,SKT,Public WiFi Free,2020-12,대구광역시 달성군 옥포면 비슬로 2215,대구광역시 수성구 시지동 140-3,한국통신사업자협회,1899-4876,35.7893104,128.4638592,2020-06-30
"지산1동주민센터",민원실,대구광역시,수성구,관공서,SKT,Public WiFi Free,2020-12,대구광역시 달성군 논공읍 금포시장길 4,대구광역시 수성구 지산동 1280-2,한국통신사업자협회,1899-4876,35.7740353,128.4217832,2020-06-30
"황금1동주민센터",민원실,대구광역시,수성구,관공서,SKT,Public WiFi Free,2020-12,대구광역시 달성군 다사읍 대실역 북로2길 188,대구광역시 수성구 황금동 93-5,한국통신사업자협회,1899-4876,35.865245,128.4607069,2020-06-30
"수성23가동주민센터",민원실,대구광역시,수성구,관공서,KT,Public WiFi Free,2020-10,대구광역시 중구 국채보상로 749,대구광역시 수성구 수성동3가 184-5,한국통신사업자협회,1899-4876,35.8687493,128.6124786,2020-06-30
"황금2동주민센터",민원실,대구광역시,수성구,관공서,SKT,Public WiFi Free,2020-10,대구광역시 중구 공평로4길 24-7,대구광역시 수성구 황금동 541-2,한국통신사업자협회,1899-4876,35.864951,128.6012747,2020-06-30
"중동주민센터",민원실,대구광역시,수성구,관공서,KT,Public WiFi Free,2020-10,대구광역시 동구 장등로90(입석동),대구광역시 수성구 중동 44-6,한국통신사업자협회,1899-4876,35.8753917,128.6237458,2020-06-30
"파동주민센터",민원실,대구광역시,수성구,관공서,KT,Public WiFi Free,2020-10,대구광역시 동구 동촌로11길 5(입석동),대구광역시 수성구 파동 152-20,한국통신사업자협회,1899-4876,35.8894286,128.6496203,2020-06-30
"두산동주민센터",민원실,대구광역시,수성구,관공서,KT,Public WiFi Free,2020-10,대구광역시 동구 팔공로24길 171(도동),대구광역시 수성구 두산동 499-4,한국통신사업자협회,1899-4876,35.9100034,128.6500078,2020-06-30
"만촌시장",시장 입구,대구광역시,수성구,서민·복지시설,KT,Public WiFi Free,2020-10,대구광역시 동구 효동로15길 13(효목동),대구광역시 수성구 만촌동 640-1,한국통신사업자협회,1899-4876,35.8829095,128.6427347,2020-06-30
"동성시장",시장 입구,대구광역시,수성구,서민·복지시설,KT,Public WiFi Free,2020-10,대구광역시 동구 방촌로29길 46(방촌동),대구광역시 수성구 수성동2가 39-91,한국통신사업자협회,1899-4876,35.8820761,128.6716797,2020-06-30
"신천시장",시장 입구,대구광역시,수성구,서민·복지시설,SKT,Public WiFi Free,2020-10,대구광역시 동구 동대구로 483,대구광역시 수성구 범어동 1430,한국통신사업자협회,1899-4876,35.8734988,128.6248207,2020-06-30
"수성시장",시장 입구,대구광역시,수성구,서민·복지시설,SKT,Public WiFi Free,2020-10,대구광역시 동구 동대구로 467,대구광역시 수성구 수성동2가 39-16,한국통신사업자협회,1899-4876,35.872174,128.6247892,2020-06-30
"태백시장",시장 입구,대구광역시,수성구,서민·복지시설,SKT,Public WiFi Free,2020-10,대구광역시 동구 동대구로 489,대구광역시 수성구 수성동2가 39-4,한국통신사업자협회,1899-4876,35.8741627,128.6248868,2020-06-30
"목련모자원",휴게실,대구광역시,수성구,서민·복지시설,SKT,Public WiFi Free,2020-10,대구광역시 동구 동대구로 503,대구광역시 수성구 파동 133-11,한국통신사업자협회,1899-4876,35.8754306,128.6251127,2020-06-30
"고산권보건복지센터",민원실,대구광역시,수성구,관공서,LGU+,Public WiFi Free,2020-10,대구광역시 동구 효동로6길 80,대구광역시 수성구 신매동 170-2,한국통신사업자협회,1899-4876,35.88189713,128.6511329,2020-06-30
"성림노인요양원",휴게실,대구광역시,수성구,서민·복지시설,SKT,Public WiFi Free,2020-10,대구광역시 동구 효동로6길 66,대구광역시 수성구 사월동 9,한국통신사업자협회,1899-4876,35.8825099,128.6498352,2020-06-30
"화랑공원",지역문화시설,대구광역시,수성구,서민·복지시설,SKT,Public WiFi Free,2020-09,대구광역시 동구 동부로30길 40,대구광역시 수성구 만촌1동 1417,한국통신사업자협회,1899-4877,35.8734791,128.628599,2020-06-30
"달서지역자활센터",전체,대구광역시,달서구,서민·복지시설,SKT,Public WiFi Free,2020-12,대구광역시 동구 동대구로 550,대구광역시 달서구 이곡동 1191-3,대구광역시 달서구청,053-667-2471,35.8790756,128.6287185,2020-06-30
"달서행복지역자활센터",전체,대구광역시,달서구,서민·복지시설,SKT,Public WiFi Free,2020-12,대구광역시 서구 북비산로65길6-3,대구광역시 달서구 상인동 1564,대구광역시 달서구청,053-667-2471,35.8802844,128.5692187,2020-06-30
"달서구청소년쉼터",전체,대구광역시,달서구,서민·복지시설,SKT,Public WiFi Free,2020-12,대구광역시 서구 달구벌대로365길3,대구광역시 달서구 본동 789-2,대구광역시 달서구청,053-667-2471,35.8610365,128.5633478,2020-06-30
"성당지역아동센터",전체,대구광역시,달서구,서민·복지시설,SKT,Public WiFi Free,2020-12,대구광역시 서구 달서천로83길13,대구광역시 달서구 성당동 493-9,대구광역시 달서구청,053-667-2471,35.8830561,128.578048,2020-06-30
"행복누리장애인보호작업장",전체,대구광역시,달서구,서민·복지시설,SKT,Public WiFi Free,2020-12,대구광역시 서구 새방로25길46,대구광역시 달서구 갈산동 100-29,대구광역시 달서구청,053-667-2471,35.8664126,128.5256222,2020-06-30
"달구벌종합스포츠센터",전체,대구광역시,달서구,서민·복지시설,SKT,Public WiFi Free,2020-12,대구광역시 서구 서대구로295,대구광역시 달서구 용산동 230-17,대구광역시 달서구청,053-667-2471,35.8842282,128.5552275,2020-06-30
"섬들보호작업장",전체,대구광역시,달서구,서민·복지시설,LGU+,Public WiFi Free,2020-12,대구광역시 서구 문화로122,대구광역시 달서구 용산동 939-8,대구광역시 달서구청,053-667-2471,35.873636,128.5457716,2020-06-30
"대구성로원",전체,대구광역시,달서구,서민·복지시설,LGU+,Public WiFi Free,2020-12,대구광역시 서구 평리로148,대구광역시 달서구 진천동 700,대구광역시 달서구청,053-667-2471,35.8585649,128.5406316,2020-06-30
"대구학생문화센터",전체,대구광역시,달서구,서민·복지시설,LGU+,Public WiFi Free,2020-12,대구광역시 서구 국채보상로279,대구광역시 달서구 용산동 230-6,대구광역시 달서구청,053-667-2471,35.8718982,128.5614469,2020-06-30
"자용모자복지관",전체,대구광역시,달서구,서민·복지시설,LGU+,Public WiFi Free,2020-12,대구광역시 서구 국채보상로46길16,대구광역시 달서구 용산동 855-1,대구광역시 달서구청,053-667-2471,35.8690202,128.5558445,2020-06-30
"월배(신)시장",전체,대구광역시,달서구,기타,LGU+,Public WiFi Free,2020-12,대구광역시 서구 국채보상로257,대구광역시 달서구 진천동 241-3,대구광역시 달서구청,053-667-2471,35.8718022,128.5592204,2020-06-30
"도원시장",전체,대구광역시,달서구,기타,LGU+,Public WiFi Free,2020-12,대구광역시 서구 달구벌대로1829,대구광역시 달서구 도원동 1437-1,대구광역시 달서구청,053-667-2471,35.8605891,128.5647531,2020-06-30
"대곡시장",전체,대구광역시,달서구,기타,SKT,Public WiFi Free,2020-12,대구광역시 서구 달서천로83길6,대구광역시 달서구 도원동 1432,대구광역시 달서구청,053-667-2471,35.8820846,128.5780387,2020-06-30
"송현주공시장",전체,대구광역시,달서구,기타,SKT,Public WiFi Free,2020-12,대구광역시 서구 국채보상로52길33,대구광역시 달서구 송현동 1948-3,대구광역시 달서구청,053-667-2471,35.8681107,128.5607115,2020-06-30
"용산종합큰시장",전체,대구광역시,달서구,기타,LGU+,Public WiFi Free,2020-12,대구광역시 서구 국채보상로45길33,대구광역시 달서구 용산동 933,대구광역시 달서구청,053-667-2471,35.8737833,128.5557238,2020-06-30
"성서와룡시장",전체,대구광역시,달서구,기타,LGU+,Public WiFi Free,2020-12,대구광역시 서구 국채보상로46길57,대구광역시 달서구 신당동 1788-3 외,대구광역시 달서구청,053-667-2471,35.8653317,128.5572538,2020-06-30
"두류종합시장",전체,대구광역시,달서구,기타,LGU+,Public WiFi Free,2020-12,대구광역시 서구 국채보상로60길6,대구광역시 달서구 성당동 704-5,대구광역시 달서구청,053-667-2471,35.8712414,128.5636881,2020-06-30
"대동시장",전체,대구광역시,달서구,기타,SKT,Public WiFi Free,2020-12,대구광역시 서구 문화로 288,대구광역시 달서구 상인동 1472-1,대구광역시 달서구청,053-667-2471,35.8755091,128.5640882,2020-06-30
"달구벌종합복지관",전체,대구광역시,달서구,서민·복지시설,LGU+,Public WiFi Free,2020-12,대구광역시 서구 북비산로71길7,대구광역시 달서구 용산동 230-17,대구광역시 달서구청,053-667-2471,35.880201281,128.572298959,2020-06-30
"대구시각장애인복지관",전체,대구광역시,달서구,서민·복지시설,LGU+,Public WiFi Free,2020-12,대구광역시 서구 문화로33길24,대구광역시 달서구 용산동 230-17,대구광역시 달서구청,053-667-2471,35.8769518,128.5507569,2020-06-30
"대구청각언어장애인복지관",전체,대구광역시,달서구,서민·복지시설,LGU+,Public WiFi Free,2020-12,대구광역시 서구 서대구로4길35,대구광역시 달서구 용산동 230-17,대구광역시 달서구청,053-667-2471,35.8606622,128.5607111,2020-06-30
"학산보호작업장",전체,대구광역시,달서구,서민·복지시설,KT,Public WiFi Free,2020-12,대구광역시 서구 큰장로15길11-1,대구광역시 달서구 갈산동 3-17,대구광역시 달서구청,053-667-2471,35.8672719,128.574556,2020-06-30
"대구광역시청소년수련원",전체,대구광역시,달서구,서민·복지시설,LGU+,Public WiFi Free,2020-12,대구광역시 서구 달서천로61안길17,대구광역시 달서구 송현동 702,대구광역시 달서구청,053-667-2471,35.8861045,128.5700977,2020-06-30
"달서구청소년수련관",전체,대구광역시,달서구,서민·복지시설,LGU+,Public WiFi Free,2020-12,대구광역시 서구 염색공단로5길4,대구광역시 달서구 상인동 1593-6,대구광역시 달서구청,053-667-2471,35.8880017,128.5535559,2020-06-30
"달서구청소년문화의집",전체,대구광역시,달서구,서민·복지시설,LGU+,Public WiFi Free,2020-12,대구광역시 서구 문화로261,대구광역시 달서구 상인동 1593-6,대구광역시 달서구청,053-667-2471,35.8759232,128.5613114,2020-06-30
"성당동 행정복지센터",민원실,대구광역시,달서구,관공서,LGU+,Public WiFi Free,2020-12,대구광역시 서구 달서로55길5,대구광역시 달서구 성당동 434-3,대구광역시 달서구청,053-667-2471,35.8868168,128.574408,2020-06-30
"두류1·2동 행정복지센터",민원실,대구광역시,달서구,관공서,LGU+,Public WiFi Free,2020-12,대구광역시 서구 달서로28길9-2,대구광역시 달서구 두류동 841-6,대구광역시 달서구청,053-667-2471,35.87456227,128.5721344,2020-06-30
"두류3동 행정복지센터",민원실,대구광역시,달서구,관공서,LGU+,Public WiFi Free,2020-12,대구광역시 서구 서대구로8길64,대구광역시 달서구 두류동 484-17,대구광역시 달서구청,053-667-2471,35.8619496,128.5637153,2020-06-30
"본리동 행정복지센터",민원실,대구광역시,달서구,관공서,LGU+,Public WiFi Free,2020-12,대구광역시 남구 대명로58길 11,대구광역시 달서구 본리동 110-4,대구광역시 달서구청,053-667-2471,35.8432344,128.5878291,2020-06-30
"감삼동 행정복지센터",민원실,대구광역시,달서구,관공서,LGU+,Public WiFi Free,2020-12,대구광역시 남구 앞산순환로 478,대구광역시 달서구 감삼동 136-2,대구광역시 달서구청,053-667-2471,35.8313155,128.5770017,2020-06-30
"죽전동 행정복지센터",민원실,대구광역시,달서구,관공서,LGU+,Public WiFi Free,2020-12,대구광역시 남구 대명남로 73,대구광역시 달서구 죽전동 204-12,대구광역시 달서구청,053-667-2471,35.83509159,128.5660918,2020-06-30
"장기동 행정복지센터",민원실,대구광역시,달서구,관공서,LGU+,Public WiFi Free,2020-12,대구광역시 남구 중앙대로 22길 100,대구광역시 달서구 장기동 817-2,대구광역시 달서구청,053-667-2471,35.8424354,128.5959628,2020-06-30
"용산1동 행정복지센터",민원실,대구광역시,달서구,관공서,LGU+,Public WiFi Free,2020-12,대구광역시 남구 월배로 496,대구광역시 달서구 용산동 934-6,대구광역시 달서구청,053-667-2471,35.8367855,128.5577515,2020-06-30
"용산2동 행정복지센터",민원실,대구광역시,달서구,관공서,LGU+,Public WiFi Free,2020-12,대구광역시 남구 이천로28길 42-43 (이천동),대구광역시 달서구 용산동 499-7,대구광역시 달서구청,053-667-2471,35.8533408,128.5997156,2020-06-30
"이곡1동 행정복지센터",민원실,대구광역시,달서구,관공서,LGU+,Public WiFi Free,2020-12,대구광역시 남구 현충로19길 43 (대명동),대구광역시 달서구 이곡동 672-2,대구광역시 달서구청,053-667-2471,35.8412884,128.5774249,2020-06-30
"이곡2동 행정복지센터",민원실,대구광역시,달서구,관공서,LGU+,Public WiFi Free,2020-12,대구광역시 남구 이천로10길 50 (봉덕동),대구광역시 달서구 이곡동 1191-3,대구광역시 달서구청,053-667-2471,35.8438374,128.6011308,2020-06-30
"신당동 행정복지센터",민원실,대구광역시,달서구,관공서,LGU+,Public WiFi Free,2020-12,대구광역시 북구 관음중앙로28길 1 (관음동),대구광역시 달서구 신당동 1749-1,대구광역시 달서구청,053-667-2471,35.9449107,128.5472256,2020-06-30
"월성1동 행정복지센터",민원실,대구광역시,달서구,관공서,LGU+,Public WiFi Free,2020-12,대구광역시 북구 노원로10길 166,대구광역시 달서구 월성동 1396-3,대구광역시 달서구청,053-667-2471,35.8901384,128.5762308,2020-06-30
"월성2동 행정복지센터",민원실,대구광역시,달서구,관공서,LGU+,Public WiFi Free,2020-12,대구광역시 북구 연암로42길 77 (산격동),대구광역시 달서구 월성동 86-3,대구광역시 달서구청,053-667-2471,35.9063022,128.6027417,2020-06-30
"진천동 행정복지센터",민원실,대구광역시,달서구,관공서,LGU+,Public WiFi Free,2020-12,대구광역시 북구 관음동로9길 10-25 (관음동),대구광역시 달서구 진천동 626-39,대구광역시 달서구청,053-667-2471,35.9378261,128.5455021,2020-06-30
"상인1동 행정복지센터",민원실,대구광역시,달서구,관공서,LGU+,Public WiFi Free,2020-12,대구광역시 북구 검단로 8-14,대구광역시 달서구 상인동 1528,대구광역시 달서구청,053-667-2471,35.8986673,128.6169196,2020-06-30
"상인2동 행정복지센터",민원실,대구광역시,달서구,관공서,LGU+,Public WiFi Free,2020-12,대구광역시 북구 대현로20길 30,대구광역시 달서구 상인동 1453-7,대구광역시 달서구청,053-667-2471,35.8811819,128.6089517,2020-06-30
"상인3동 행정복지센터",민원실,대구광역시,달서구,관공서,LGU+,Public WiFi Free,2020-12,대구광역시 북구 조야로 31-1,대구광역시 달서구 상인동 1579,대구광역시 달서구청,053-667-2471,35.9100787,128.5762131,2020-06-30
"도원동 행정복지센터",민원실,대구광역시,달서구,관공서,LGU+,Public WiFi Free,2020-12,대구광역시 북구 연암로 88,대구광역시 달서구 도원동 1429-5,대구광역시 달서구청,053-667-2471,35.8926191,128.5946639,2020-06-30
"송현1동 행정복지센터",민원실,대구광역시,달서구,관공서,LGU+,Public WiFi Free,2020-12,대구광역시 북구 대학로15길 16,대구광역시 달서구 송현동 1995,대구광역시 달서구청,053-667-2471,35.89352623,128.6083117,2020-06-30
"송현2동 행정복지센터",민원실,대구광역시,달서구,관공서,LGU+,Public WiFi Free,2020-12,대구광역시 북구 신천동로 740,대구광역시 달서구 송현동 528-3,대구광역시 달서구청,053-667-2471,35.8856404,128.6025896,2020-06-30
"본동 행정복지센터",민원실,대구광역시,달서구,관공서,LGU+,Public WiFi Free,2020-12,대구광역시 북구 칠성시장로 34,대구광역시 달서구 본동 867-3,대구광역시 달서구청,053-667-2471,35.8772404,128.6039645,2020-06-30
"달서구보건소",민원실,대구광역시,달서구,관공서,LGU+,Public WiFi Free,2020-12,대구광역시 북구 칠성시장로 34,대구광역시 달서구 월성동 281,대구광역시 달서구청,053-667-2471,35.8772404,128.6039645,2020-06-30
"성서보건지소",민원실,대구광역시,달서구,관공서,SKT,Public WiFi Free,2020-12,대구광역시 북구 침산남로 195,대구광역시 달서구 이곡동 1191-4,대구광역시 달서구청,053-667-2471,35.8872637,128.596993,2020-06-30
"달서구자원봉사센터",전체,대구광역시,달서구,서민·복지시설,SKT,Public WiFi Free,2020-12,대구광역시 북구 태전로7길 10-24,대구광역시 달서구 진천동 626-39,대구광역시 달서구청,053-667-2471,35.9240928,128.5433323,2020-06-30
"본리종합사회복지관",전체,대구광역시,달서구,서민·복지시설,SKT,Public WiFi Free,2020-12,대구광역시 북구 태전로 15,대구광역시 달서구 본리동 110-4,대구광역시 달서구청,053-667-2471,35.9216539,128.544899,2020-06-30
"월성종합사회복지관",전체,대구광역시,달서구,서민·복지시설,SKT,Public WiFi Free,2020-12,대구광역시 북구 칠곡중앙대로 397-20,대구광역시 달서구 월성동 273,대구광역시 달서구청,053-667-2471,35.9316356,128.5461611,2020-06-30
"성서종합사회복지관",전체,대구광역시,달서구,서민·복지시설,SKT,Public WiFi Free,2020-12,대구광역시 수성구 희망로 201(황금동),대구광역시 달서구 신당동 1844,대구광역시 달서구청,053-667-2471,35.8468644,128.6209098,2020-06-30
"신당종합사회복지관",전체,대구광역시,달서구,서민·복지시설,SKT,Public WiFi Free,2020-12,대구광역시 수성구 달구벌대로 2450(범어동),대구광역시 달서구 신당동 1846,대구광역시 달서구청,053-667-2471,35.8580437,128.630552,2020-06-30
"월배노인복지센터",전체,대구광역시,달서구,서민·복지시설,SKT,Public WiFi Free,2020-12,대구광역시 수성구 성동로 74-16(사월동),대구광역시 달서구 월성동 1537,대구광역시 달서구청,053-667-2471,35.8423746,128.7243619,2020-06-30
"달서별빛캠프 캠핑장",전체,대구광역시,달서구,기타,KT,Public WiFi Free,2020-12,대구광역시 수성구 수성로 213(중동),대구광역시 달서구 송현동 산56,대구광역시 달서구청,053-667-2471,35.8447846,128.6122124,2020-06-30
"달서가족문화도서관",전체,대구광역시,달서구,관공서,LGU+,Public WiFi Free,2020-12,대구광역시 수성구 달구벌대로 3260-2(신매동),대구광역시 달서구 대천동 460-8,대구광역시 달서구청,053-667-2471,35.8371318,128.7124229,2020-06-30
"달성군장애인복지관",복지시설內,대구광역시,달성군,서민·복지시설,LGU+,Public WiFi Free,2020-12,대구광역시 수성구 달구벌대로 3091(시지동),,대구광역시 달성군청,053-668-2473,35.8435085,128.6951977,2020-06-30
"행복울타리",복지시설內,대구광역시,달성군,서민·복지시설,자체설치,Public WiFi Free,2020-12,대구광역시 수성구 명덕로 443-2 (수성동3가),,대구광역시 달성군청,053-668-2473,35.8547435,128.619027,2020-06-30
"달성군장애인재활자립작업장",복지시설內,대구광역시,달성군,서민·복지시설,자체설치,Public WiFi Free,2020-12,대구광역시 수성구 파동로 136 (파동),,대구광역시 달성군청,053-668-2473,35.8155269,128.6152046,2020-06-30
"달성군노인복지관",사무실,대구광역시,달성군,서민·복지시설,LGU+,Public WiFi Free,2020-12,대구광역시 수성구 무열로29길 24(만촌동),,대구광역시 달성군청,053-668-2473,35.871827,128.6464214,2020-06-30
"달성문화원",사무실,대구광역시,달성군,지역문화시설,LGU+,Public WiFi Free,2020-12,대구광역시 수성구 들안로 285-57,,대구광역시 달성군청,053-668-2473,35.8556725,128.616975,2020-06-30
"한일우호관",사무실,대구광역시,달성군,지역문화시설,LGU+,Public WiFi Free,2020-12,대구광역시 수성구 파동로26길 6,,대구광역시 달성군청,053-668-2473,35.8179961,128.6156387,2020-06-30
"달성군청소년센터",사무실,대구광역시,달성군,서민·복지시설,LGU+,Public WiFi Free,2020-12,대구광역시 수성구 만촌로 151,,대구광역시 달성군청,053-668-2473,35.8721894,128.6393415,2020-06-30
"달성군민체육센터",체육센터內,대구광역시,달성군,편의시설,LGU+,Public WiFi Free,2020-12,대구광역시 달서구 상화로 373 (상인동),,대구광역시 달성군청,053-668-2473,35.8088907,128.5551508,2020-06-30
"달성군청 도서관",도서관,대구광역시,달성군,교육시설,LGU+,Public WiFi Free,2020-12,대구광역시 달서구 야외음악당로13길 7 (성당동),,대구광역시 달성군청,053-668-2473,35.8426499,128.5523993,2020-06-30
"화원도서관",도서관,대구광역시,달성군,교육시설,LGU+,Public WiFi Free,2020-12,대구광역시 달서구 장산2길 34 (용산동),,대구광역시 달성군청,053-668-2473,35.8559479,128.5254738,2020-06-30
"달성군청 민원실",민원실,대구광역시,달성군,관공서,LGU+,Public WiFi Free,2020-12,대구광역시 달서구 달구벌대로301길 186 (용산동),,대구광역시 달성군청,053-668-2473,35.8582653,128.5316115,2020-06-30
"화원읍사무소",민원실,대구광역시,달성군,관공서,LGU+,Public WiFi Free,2020-12,대구광역시 달서구 도원로 24 (도원동),,대구광역시 달성군청,053-668-2473,35.8075918,128.5354904,2020-06-30
"달성군종합사회복지관",사무실,대구광역시,달성군,서민·복지시설,LGU+,Public WiFi Free,2020-12,대구광역시 달서구 성서서로69길 7,,대구광역시 달성군청,053-668-2473,35.8558242,128.4993413,2020-06-30
"옥포면사무소",민원실,대구광역시,달성군,관공서,LGU+,Public WiFi Free,2020-12,대구광역시 달서구 상원로 22-24 (상인동),,대구광역시 달성군청,053-668-2473,35.811678,128.5378173,2020-06-30
"유가면사무소",민원실,대구광역시,달성군,관공서,LGU+,Public WiFi Free,2020-12,대구광역시 달서구 달구벌대로291길 100 (용산동),,대구광역시 달성군청,053-668-2473,35.8534129,128.5251887,2020-06-30
"유치곤장군기념관",기념관,대구광역시,달성군,지역문화시설,LGU+,Public WiFi Free,2020-12,대구광역시 달서구 상화로 420 (상인동),,대구광역시 달성군청,053-668-2473,35.8071988,128.5594488,2020-06-30
"음리보건지소",민원실,대구광역시,달성군,관공서,LGU+,Public WiFi Free,2020-12,대구광역시 달서구 야외음악당로 38 (성당동),,대구광역시 달성군청,053-668-2473,35.84061243,128.5531497,2020-06-30
"화원보건지소",민원실,대구광역시,달성군,관공서,LGU+,Public WiFi Free,2020-12,대구광역시 달서구 당산로 37-14 (본리동),,대구광역시 달성군청,053-668-2473,35.84101503,128.5431658,2020-06-30
"논공읍사무소",민원실,대구광역시,달성군,관공서,KT,Public WiFi Free,2020-12,대구광역시 달성군 논공읍 논공로 242,,대구광역시 달성군청,053-668-2473,35.7233173,128.4545652,2020-06-30
"현풍면사무소",민원실,대구광역시,달성군,관공서,KT,Public WiFi Free,2020-12,대구광역시 달성군 현풍면 현풍동로 92,,대구광역시 달성군청,053-668-2473,35.6988635,128.4519976,2020-06-30
"달성군보건소",민원실,대구광역시,달성군,관공서,KT,Public WiFi Free,2020-12,대구광역시 달성군 논공읍 달성군청로 33,,대구광역시 달성군청,053-668-2473,35.7745414,128.4313244,2020-06-30
"다사보건지소",민원실,대구광역시,달성군,관공서,KT,Public WiFi Free,2020-12,대구광역시 달성군 화원읍 비슬로 2594,,대구광역시 달성군청,053-668-2473,35.803907,128.500813,2020-06-30
"가창보건지소",민원실,대구광역시,달성군,관공서,KT,Public WiFi Free,2020-12,대구광역시 달성군 논공읍 논공로 697-9,,대구광역시 달성군청,053-668-2473,35.7303037,128.4519198,2020-06-30
"하빈보건지소",민원실,대구광역시,달성군,관공서,KT,Public WiFi Free,2020-12,대구광역시 달성군 유가읍 테크노상업로 95,,대구광역시 달성군청,053-668-2473,35.6938854,128.4598183,2020-06-30
"옥포보건지소",민원실,대구광역시,달성군,관공서,SKT,Public WiFi Free,2020-12,대구광역시 달성군 화원읍 비슬로 2594,,대구광역시 달성군청,053-668-2473,35.803907,128.500813,2020-06-30
"구지보건지소",민원실,대구광역시,달성군,관공서,KT,Public WiFi Free,2020-12,대구광역시 달성군 현풍면 비슬로130길 17,,대구광역시 달성군청,053-668-2473,35.6948119,128.4403309,2020-06-30
"논공시장(등록)",시장內,대구광역시,달성군,기타,SKT,Public WiFi Free,2020-12,대구광역시 달성군 가창면 가창로 1100,,대구광역시 달성군청,053-668-2473,35.8025854,128.622956,2020-06-30
"구지시장(등록)",시장內,대구광역시,달성군,기타,LGU+,Public WiFi Free,2020-12,대구광역시 달성군 구지면 창리로 11길 38,,대구광역시 달성군청,053-668-2473,35.6587707,128.4135612,2020-06-30
"달성문화복지센터",사무실,대구광역시,달성군,서민·복지시설,KT,Public WiFi Free,2020-12,대구광역시 달성군 구지면 창리로11길 15-5,,대구광역시 달성군청,053-668-2473,35.65778707,128.4127038,2020-06-30
